[
  {
    "name": "Shop 1",
    "code": "S001",
    "phoneNumber": "123-456-7890",
    "latitude": 34,
    "longitude": 34
  },
  {
    "name": "Shop 2",
    "code": "S002",
    "phoneNumber": "123-456-7891",
    "latitude": 35,
    "longitude": 35
  },
  {
    "name": "Shop 3",
    "code": "S003",
    "phoneNumber": "123-456-7892",
    "latitude": 36,
    "longitude": 36
  },
  {
    "name": "Shop 4",
    "code": "S004",
    "phoneNumber": "123-456-7893",
    "latitude": 37,
    "longitude": 37
  },
  {
    "name": "Shop 5",
    "code": "S005",
    "phoneNumber": "123-456-7894",
    "latitude": 38,
    "longitude": 38
  },
  {
    "name": "Shop 6",
    "code": "S006",
    "phoneNumber": "123-456-7895",
    "latitude": 39,
    "longitude": 39
  },
  {
    "name": "Shop 7",
    "code": "S007",
    "phoneNumber": "123-456-7896",
    "latitude": 40,
    "longitude": 40
  },
  {
    "name": "Shop 8",
    "code": "S008",
    "phoneNumber": "123-456-7897",
    "latitude": 41,
    "longitude": 41
  },
  {
    "name": "Shop 9",
    "code": "S009",
    "phoneNumber": "123-456-7898",
    "latitude": 42,
    "longitude": 42
  },
  {
    "name": "Shop 10",
    "code": "S010",
    "phoneNumber": "123-456-7899",
    "latitude": 43,
    "longitude": 43
  },
  {
    "name": "Shop 11",
    "code": "S011",
    "phoneNumber": "123-456-7900",
    "latitude": 44,
    "longitude": 44
  },
  {
    "name": "Shop 12",
    "code": "S012",
    "phoneNumber": "123-456-7901",
    "latitude": 45,
    "longitude": 45
  },
  {
    "name": "Shop 13",
    "code": "S013",
    "phoneNumber": "123-456-7902",
    "latitude": 46,
    "longitude": 46
  },
  {
    "name": "Shop 14",
    "code": "S014",
    "phoneNumber": "123-456-7903",
    "latitude": 47,
    "longitude": 47
  },
  {
    "name": "Shop 15",
    "code": "S015",
    "phoneNumber": "123-456-7904",
    "latitude": 48,
    "longitude": 48
  },
  {
    "name": "Shop 16",
    "code": "S016",
    "phoneNumber": "123-456-7905",
    "latitude": 49,
    "longitude": 49
  },
  {
    "name": "Shop 17",
    "code": "S017",
    "phoneNumber": "123-456-7906",
    "latitude": 50,
    "longitude": 50
  },
  {
    "name": "Shop 18",
    "code": "S018",
    "phoneNumber": "123-456-7907",
    "latitude": 51,
    "longitude": 51
  },
  {
    "name": "Shop 19",
    "code": "S019",
    "phoneNumber": "123-456-7908",
    "latitude": 52,
    "longitude": 52
  },
  {
    "name": "Shop 20",
    "code": "S020",
    "phoneNumber": "123-456-7909",
    "latitude": 53,
    "longitude": 53
  }
]
